{"type":"FeatureCollection","features":[{"type":"Feature","properties":{"City":"Sparta Township","County":"Sussex","Status":"NPL Site","Longitude":-74.63,"Latitude":41.04805,"Name":"A. O. Polymer","Score":28.91,"i":"Low"},"geometry":{"type":"Point","coordinates":[-74.63,41.04805]}},{"type":"Feature","properties":{"City":"Bound Brook","County":"Somerset","Status":"NPL Site","Longitude":-74.55945,"Latitude":40.555561,"Name":"American Cyanamid Co.","Score":50.28,"i":"Medium"},"geometry":{"type":"Point","coordinates":[-74.55945,40.555561]}},{"type":"Feature","properties":{"City":"Millington","County":"Morris","Status":"Deleted NPL Site","Longitude":-74.525561,"Latitude":40.6725,"Name":"Asbestos Dump","Score":39.61,"i":"Low"},"geometry":{"type":"Point","coordinates":[-74.525561,40.6725]}},{"type":"Feature","properties":{"City":"Berkley Township","County":"Ocean","Status":"Deleted NPL Site","Longitude":-74.196661,"Latitude":39.924719,"Name":"Beachwood/Berkley Wells","Score":42.24,"i":"Medium"},"geometry":{"type":"Point","coordinates":[-74.196661,39.924719]}},{"type":"Feature","properties":{"City":"Howell Township","County":"Monmouth","Status":"NPL Site","Longitude":-74.161111,"Latitude":40.150831,"Name":"Bog Creek Farm","Score":43.23,"i":"Medium"},"geometry":{"type":"Point","coordinates":[-74.161111,40.150831]}},{"type":"Feature","properties":{"City":"Brick Township","County":"Ocean","Status":"NPL Site","Longitude":-74.1311,"Latitude":40.1098,"Name":"Brick Township Landfill","Score":58.13,"i":"Medium"},"geometry":{"type":"Point","coordinates":[-74.1311,40.1098]}},{"type":"Feature","properties":{"City":"Bridgeport","County":"Gloucester","Status":"NPL Site","Longitude":-75.321661,"Latitude":39.801669,"Name":"Bridgeport Rental & Oil Services","Score":60.73,"i":"High"},"geometry":{"type":"Point","coordinates":[-75.321661,39.801669]}},{"type":"Feature","properties":{"City":"Marlboro Township","County":"Middlesex, Monmouth","Status":"NPL Site","Longitude":-74.279169,"Latitude":40.375,"Name":"Burnt Fly Bog","Score":59.16,"i":"Medium"},"geometry":{"type":"Point","coordinates":[-74.279169,40.375]}},{"type":"Feature","properties":{"City":"Fairfield","County":"Essex","Status":"NPL Site","Longitude":-74.271389,"Latitude":40.876389,"Name":"Caldwell Trucking Co.","Score":58.3,"i":"Medium"},"geometry":{"type":"Point","coordinates":[-74.271389,40.876389]}},{"type":"Feature","properties":{"City":"Elizabeth","County":"Union","Status":"NPL Site","Longitude":-74.1935,"Latitude":40.6432,"Name":"Chemical Control","Score":47.13,"i":"Medium"},"geometry":{"type":"Point","coordinates":[-74.1935,40.6432]}},{"type":"Feature","properties":{"City":"Piscataway","County":"Middlesex","Status":"NPL Site","Longitude":-74.443339,"Latitude":40.5625,"Name":"Chemsol, Inc.","Score":42.69,"i":"Medium"},"geometry":{"type":"Point","coordinates":[-74.443339,40.5625]}},{"type":"Feature","properties":{"City":"Mount Olive Township","County":"Morris","Status":"Deleted NPL Site","Longitude":-74.713331,"Latitude":40.881939,"Name":"Combe Fill North Landfill","Score":47.79,"i":"Medium"},"geometry":{"type":"Point","coordinates":[-74.713331,40.881939]}},{"type":"Feature","properties":{"City":"Chester Township","County":"Morris","Status":"NPL Site","Longitude":-74.738331,"Latitude":40.771669,"Name":"Combe Fill South Landfill","Score":45.22,"i":"Medium"},"geometry":{"type":"Point","coordinates":[-74.738331,40.771669]}},{"type":"Feature","properties":{"City":"Old Bridge Township","County":"Middlesex","Status":"NPL Site","Longitude":-74.327769,"Latitude":40.434439,"Name":"CPS/Madison Industries","Score":69.73,"i":"High"},"geometry":{"type":"Point","coordinates":[-74.327769,40.434439]}},{"type":"Feature","properties":{"City":"Hamilton Township","County":"Atlantic","Status":"NPL Site","Longitude":-74.658889,"Latitude":39.454439,"Name":"D'Imperio Property","Score":55.79,"i":"Medium"},"geometry":{"type":"Point","coordinates":[-74.658889,39.454439]}},{"type":"Feature","properties":{"City":"Bayville","County":"Ocean","Status":"Deleted NPL Site","Longitude":-74.170831,"Latitude":39.909169,"Name":"Denzer & Schafer X-Ray Co.","Score":40.36,"i":"Medium"},"geometry":{"type":"Point","coordinates":[-74.170831,39.909169]}},{"type":"Feature","properties":{"City":"Dover","County":"Morris","Status":"NPL Site","Longitude":-74.5423,"Latitude":40.8858,"Name":"Dover Municipal Well 4","Score":28.9,"i":"Low"},"geometry":{"type":"Point","coordinates":[-74.5423,40.8858]}},{"type":"Feature","properties":{"City":"Evesham Township","County":"Burlington","Status":"NPL Site","Longitude":-74.864719,"Latitude":39.905,"Name":"Ellis Property","Score":34.62,"i":"Low"},"geometry":{"type":"Point","coordinates":[-74.864719,39.905]}},{"type":"Feature","properties":{"City":"Old Bridge Township","County":"Middlesex","Status":"NPL Site","Longitude":-74.325,"Latitude":40.4375,"Name":"Evor Phillips Leasing","Score":36.64,"i":"Low"},"geometry":{"type":"Point","coordinates":[-74.325,40.4375]}},{"type":"Feature","properties":{"City":"Fair Lawn","County":"Bergen","Status":"NPL Site","Longitude":-74.131939,"Latitude":40.9375,"Name":"Fair Lawn Well Field","Score":42.49,"i":"Medium"},"geometry":{"type":"Point","coordinates":[-74.131939,40.9375]}},{"type":"Feature","properties":{"City":"Upper Freehold Township","County":"Monmouth","Status":"Deleted NPL Site","Longitude":-74.5077,"Latitude":40.1048,"Name":"Friedman Property","Score":33.88,"i":"Low"},"geometry":{"type":"Point","coordinates":[-74.5077,40.1048]}},{"type":"Feature","properties":{"City":"Gloucester Township","County":"Camden","Status":"NPL Site","Longitude":-75.018889,"Latitude":39.77945,"Name":"GEMS Landfill","Score":68.53,"i":"High"},"geometry":{"type":"Point","coordinates":[-75.018889,39.77945]}},{"type":"Feature","properties":{"City":"Plumstead Township","County":"Ocean","Status":"NPL Site","Longitude":-74.4975,"Latitude":40.09555,"Name":"Goose Farm","Score":47.71,"i":"Medium"},"geometry":{"type":"Point","coordinates":[-74.4975,40.09555]}},{"type":"Feature","properties":{"City":"Gibbstown","County":"Gloucester","Status":"NPL Site","Longitude":-75.277781,"Latitude":39.838889,"Name":"Hercules, Inc. (Gibbstown Plant)","Score":40.36,"i":"Medium"},"geometry":{"type":"Point","coordinates":[-75.277781,39.838889]}},{"type":"Feature","properties":{"City":"Morganville","County":"Monmouth","Status":"NPL Site","Longitude":-74.245831,"Latitude":40.383889,"Name":"Imperial Oil Co., Inc./Champion Chemicals","Score":33.87,"i":"Low"},"geometry":{"type":"Point","coordinates":[-74.245831,40.383889]}},{"type":"Feature","properties":{"City":"Jackson Township","County":"Ocean","Status":"Deleted NPL Site","Longitude":-74.348611,"Latitude":40.063331,"Name":"Jackson Township Landfill","Score":38.11,"i":"Low"},"geometry":{"type":"Point","coordinates":[-74.348611,40.063331]}},{"type":"Feature","properties":{"City":"Jamesburg, South Brunswick Township","County":"Middlesex","Status":"NPL Site","Longitude":-74.465281,"Latitude":40.365831,"Name":"JIS Landfill","Score":45.14,"i":"Medium"},"geometry":{"type":"Point","coordinates":[-74.465281,40.365831]}},{"type":"Feature","properties":{"City":"Edison Township","County":"Middlesex","Status":"NPL Site","Longitude":-74.3785,"Latitude":40.4891,"Name":"Kin-Buc Landfill","Score":50.64,"i":"Medium"},"geometry":{"type":"Point","coordinates":[-74.3785,40.4891]}},{"type":"Feature","properties":{"City":"Winslow Township","County":"Camden","Status":"NPL Site","Longitude":-74.889439,"Latitude":39.62695,"Name":"King of Prussia","Score":47.19,"i":"Medium"},"geometry":{"type":"Point","coordinates":[-74.889439,39.62695]}},{"type":"Feature","properties":{"City":"Mantua Township","County":"Gloucester","Status":"NPL Site","Longitude":-75.2003,"Latitude":39.7801,"Name":"Helen Kramer Landfill","Score":72.66,"i":"High"},"geometry":{"type":"Point","coordinates":[-75.2003,39.7801]}},{"type":"Feature","properties":{"City":"Hillsborough","County":"Somerset","Status":"Deleted NPL Site","Longitude":-74.78,"Latitude":40.500281,"Name":"Krysowaty Farm","Score":55.14,"i":"Medium"},"geometry":{"type":"Point","coordinates":[-74.78,40.500281]}},{"type":"Feature","properties":{"City":"Pemberton Township","County":"Burlington","Status":"NPL Site","Longitude":-74.49445,"Latitude":39.929161,"Name":"Lang Property","Score":48.89,"i":"Medium"},"geometry":{"type":"Point","coordinates":[-74.49445,39.929161]}},{"type":"Feature","properties":{"City":"Pitman","County":"Gloucester","Status":"NPL Site","Longitude":-75.141939,"Latitude":39.720281,"Name":"Lipari Landfill","Score":75.6,"i":"High"},"geometry":{"type":"Point","coordinates":[-75.141939,39.720281]}},{"type":"Feature","properties":{"City":"Freehold Township","County":"Monmouth","Status":"NPL Site","Longitude":-74.333339,"Latitude":40.202781,"Name":"Lone Pine Landfill","Score":66.33,"i":"High"},"geometry":{"type":"Point","coordinates":[-74.333339,40.202781]}},{"type":"Feature","properties":{"City":"Asbury Park","County":"Monmouth","Status":"Deleted NPL Site","Longitude":-74.045281,"Latitude":40.229169,"Name":"M&T Delisa Landfill","Score":32.27,"i":"Low"},"geometry":{"type":"Point","coordinates":[-74.045281,40.229169]}},{"type":"Feature","properties":{"City":"Galloway Township","County":"Atlantic","Status":"Deleted NPL Site","Longitude":-74.533331,"Latitude":39.538889,"Name":"Mannheim Avenue Dump","Score":36.56,"i":"Low"},"geometry":{"type":"Point","coordinates":[-74.533331,39.538889]}},{"type":"Feature","properties":{"City":"Maywood, Rochelle Park","County":"Bergen","Status":"NPL Site","Longitude":-74.0693,"Latitude":40.8964,"Name":"Maywood Chemical Co.","Score":51.19,"i":"Medium"},"geometry":{"type":"Point","coordinates":[-74.0693,40.8964]}},{"type":"Feature","properties":{"City":"Franklin Borough","County":"Sussex","Status":"NPL Site","Longitude":-74.599719,"Latitude":41.109719,"Name":"Metaltec/Aerosystems","Score":48.95,"i":"Medium"},"geometry":{"type":"Point","coordinates":[-74.599719,41.109719]}},{"type":"Feature","properties":{"City":"Monroe Township","County":"Middlesex","Status":"Deleted NPL Site","Longitude":-74.401389,"Latitude":40.361669,"Name":"Monroe Township Landfill","Score":42.37,"i":"Medium"},"geometry":{"type":"Point","coordinates":[-74.401389,40.361669]}},{"type":"Feature","properties":{"City":"Montgomery Township","County":"Somerset","Status":"NPL Site","Longitude":-74.644169,"Latitude":40.408331,"Name":"Montgomery Township Housing Development","Score":37.93,"i":"Low"},"geometry":{"type":"Point","coordinates":[-74.644169,40.408331]}},{"type":"Feature","properties":{"City":"Franklin Township","County":"Hunterdon","Status":"NPL Site","Longitude":-74.9404,"Latitude":40.595,"Name":"Myers Property","Score":33.83,"i":"Low"},"geometry":{"type":"Point","coordinates":[-74.9404,40.595]}},{"type":"Feature","properties":{"City":"Pedricktown","County":"Salem","Status":"NPL Site","Longitude":-75.424719,"Latitude":39.758061,"Name":"NL Industries","Score":52.96,"i":"Medium"},"geometry":{"type":"Point","coordinates":[-75.424719,39.758061]}},{"type":"Feature","properties":{"City":"Boonton","County":"Morris","Status":"Deleted NPL Site","Longitude":-74.411939,"Latitude":40.912219,"Name":"Pepe Field","Score":33.83,"i":"Low"},"geometry":{"type":"Point","coordinates":[-74.411939,40.912219]}},{"type":"Feature","properties":{"City":"Plumstead Township","County":"Ocean","Status":"Deleted NPL Site","Longitude":-74.499439,"Latitude":40.07555,"Name":"Pijak Farm","Score":43.48,"i":"Medium"},"geometry":{"type":"Point","coordinates":[-74.499439,40.07555]}},{"type":"Feature","properties":{"City":"Jersey City","County":"Hudson","Status":"NPL Site","Longitude":-74.085561,"Latitude":40.734719,"Name":"PJP Landfill","Score":28.73,"i":"Low"},"geometry":{"type":"Point","coordinates":[-74.085561,40.734719]}},{"type":"Feature","properties":{"City":"Pleasantville","County":"Atlantic","Status":"NPL Site","Longitude":-74.52695,"Latitude":39.415281,"Name":"Price Landfill","Score":0,"i":"Low"},"geometry":{"type":"Point","coordinates":[-74.52695,39.415281]}},{"type":"Feature","properties":{"City":"Pleasant Plains","County":"Ocean","Status":"Deleted NPL Site","Longitude":-74.2149,"Latitude":40.0106,"Name":"Reich Farms","Score":53.48,"i":"Medium"},"geometry":{"type":"Point","coordinates":[-74.2149,40.0106]}},{"type":"Feature","properties":{"City":"Edison Township","County":"Middlesex","Status":"Deleted NPL Site","Longitude":-74.358889,"Latitude":40.519628,"Name":"Renora, Inc.","Score":40.44,"i":"Medium"},"geometry":{"type":"Point","coordinates":[-74.358889,40.519628]}},{"type":"Feature","properties":{"City":"Rockaway Township","County":"Morris","Status":"NPL Site","Longitude":-74.515561,"Latitude":40.905831,"Name":"Rockaway Borough Well Field","Score":42.34,"i":"Medium"},"geometry":{"type":"Point","coordinates":[-74.515561,40.905831]}},{"type":"Feature","properties":{"City":"Rockaway Township","County":"Morris","Status":"NPL Site","Longitude":-74.499169,"Latitude":40.913331,"Name":"Rockaway Township Wells","Score":28.9,"i":"Low"},"geometry":{"type":"Point","coordinates":[-74.499169,40.913331]}},{"type":"Feature","properties":{"City":"Rocky Hill Borough","County":"Somerset","Status":"NPL Site","Longitude":-74.6475,"Latitude":40.401669,"Name":"Rocky Hill Municipal Well","Score":37.93,"i":"Low"},"geometry":{"type":"Point","coordinates":[-74.6475,40.401669]}},{"type":"Feature","properties":{"City":"Florence","County":"Burlington","Status":"NPL Site","Longitude":-74.770839,"Latitude":40.120831,"Name":"Roebling Steel Co.","Score":41.02,"i":"Medium"},"geometry":{"type":"Point","coordinates":[-74.770839,40.120831]}},{"type":"Feature","properties":{"City":"Sayreville","County":"Middlesex","Status":"Deleted NPL Site","Longitude":-74.358331,"Latitude":40.445561,"Name":"Sayreville Landfill","Score":37.05,"i":"Low"},"geometry":{"type":"Point","coordinates":[-74.358331,40.445561]}},{"type":"Feature","properties":{"City":"Carlstadt","County":"Bergen","Status":"NPL Site","Longitude":-74.074329,"Latitude":40.82454,"Name":"Scientific Chemical Processing","Score":55.97,"i":"Medium"},"geometry":{"type":"Point","coordinates":[-74.074329,40.82454]}},{"type":"Feature","properties":{"City":"Parsippany, Troy Hills","County":"Morris","Status":"NPL Site","Longitude":-74.3454,"Latitude":40.8501,"Name":"Sharkey Landfill","Score":48.85,"i":"Medium"},"geometry":{"type":"Point","coordinates":[-74.3454,40.8501]}},{"type":"Feature","properties":{"City":"South Brunswick","County":"Middlesex","Status":"Deleted NPL Site","Longitude":-74.56805,"Latitude":40.402781,"Name":"South Brunswick Landfill","Score":53.42,"i":"Medium"},"geometry":{"type":"Point","coordinates":[-74.56805,40.402781]}},{"type":"Feature","properties":{"City":"Plumstead Township","County":"Ocean","Status":"Deleted NPL Site","Longitude":-74.5061,"Latitude":40.0789,"Name":"Spence Farm","Score":45.87,"i":"Medium"},"geometry":{"type":"Point","coordinates":[-74.5061,40.0789]}},{"type":"Feature","properties":{"City":"Pennsauken Township","County":"Camden","Status":"NPL Site","Longitude":-75.0347,"Latitude":39.9886,"Name":"Swope Oil & Chemical Co.","Score":35.68,"i":"Low"},"geometry":{"type":"Point","coordinates":[-75.0347,39.9886]}},{"type":"Feature","properties":{"City":"South Kearny","County":"Hudson","Status":"NPL Site","Longitude":-74.114719,"Latitude":40.737781,"Name":"Syncon Resins","Score":43.43,"i":"Medium"},"geometry":{"type":"Point","coordinates":[-74.114719,40.737781]}},{"type":"Feature","properties":{"City":"Toms River","County":"Ocean","Status":"NPL Site","Longitude":-74.2363,"Latitude":39.9867,"Name":"Ciba-Geigy Corp.","Score":50.33,"i":"Medium"},"geometry":{"type":"Point","coordinates":[-74.2363,39.9867]}},{"type":"Feature","properties":{"City":"East Rutherford","County":"Bergen","Status":"NPL Site","Longitude":-74.088889,"Latitude":40.83,"Name":"Universal Oil Products (Chemical Division)","Score":54.63,"i":"Medium"},"geometry":{"type":"Point","coordinates":[-74.088889,40.83]}},{"type":"Feature","properties":{"City":"Orange","County":"Essex","Status":"NPL Site","Longitude":-74.228611,"Latitude":40.781389,"Name":"U.S. Radium Corp.","Score":37.79,"i":"Low"},"geometry":{"type":"Point","coordinates":[-74.228611,40.781389]}},{"type":"Feature","properties":{"City":"Vineland","County":"Cumberland","Status":"Deleted NPL Site","Longitude":-74.991669,"Latitude":39.486111,"Name":"Vineland State School","Score":40.84,"i":"Medium"},"geometry":{"type":"Point","coordinates":[-74.991669,39.486111]}},{"type":"Feature","properties":{"City":"Swainton","County":"Cape May","Status":"NPL Site","Longitude":-74.8004,"Latitude":39.1173,"Name":"Williams Property","Score":40.45,"i":"Medium"},"geometry":{"type":"Point","coordinates":[-74.8004,39.1173]}},{"type":"Feature","properties":{"City":"Woodland Township","County":"Burlington","Status":"NPL Site","Longitude":-74.447781,"Latitude":39.821669,"Name":"Woodland Route 72 Dump","Score":31.17,"i":"Low"},"geometry":{"type":"Point","coordinates":[-74.447781,39.821669]}},{"type":"Feature","properties":{"City":"Bridgeport","County":"Gloucester","Status":"NPL Site","Longitude":-75.332781,"Latitude":39.798331,"Name":"Chemical Leaman Tank Lines, Inc.","Score":47.53,"i":"Medium"},"geometry":{"type":"Point","coordinates":[-75.332781,39.798331]}},{"type":"Feature","properties":{"City":"Egg Harbor Township","County":"Atlantic","Status":"Deleted NPL Site","Longitude":-74.545831,"Latitude":39.416669,"Name":"Delilah Road","Score":49.33,"i":"Medium"},"geometry":{"type":"Point","coordinates":[-74.545831,39.416669]}},{"type":"Feature","properties":{"City":"Kingwood Township","County":"Hunterdon","Status":"NPL Site","Longitude":-75.0614,"Latitude":40.5162,"Name":"De Rewal Chemical Co.","Score":35.72,"i":"Low"},"geometry":{"type":"Point","coordinates":[-75.0614,40.5162]}},{"type":"Feature","properties":{"City":"Newark","County":"Essex","Status":"NPL Site","Longitude":-74.136111,"Latitude":40.739719,"Name":"Diamond Alkali Co.","Score":35.4,"i":"Low"},"geometry":{"type":"Point","coordinates":[-74.136111,40.739719]}},{"type":"Feature","properties":{"City":"Shamong Township","County":"Burlington","Status":"NPL Site","Longitude":-74.719439,"Latitude":39.802781,"Name":"Ewan Property","Score":50.19,"i":"Medium"},"geometry":{"type":"Point","coordinates":[-74.719439,39.802781]}},{"type":"Feature","properties":{"City":"Wayne Township","County":"Passaic","Status":"Deleted NPL Site","Longitude":-74.270327,"Latitude":40.969014,"Name":"W.R. Grace & Co., Inc./Wayne Interim Storage Site (USDOE)","Score":47.14,"i":"Medium"},"geometry":{"type":"Point","coordinates":[-74.270327,40.969014]}},{"type":"Feature","properties":{"City":"Plumstead Township","County":"Ocean","Status":"Deleted NPL Site","Longitude":-74.4875,"Latitude":40.088889,"Name":"Hopkins Farm","Score":34.09,"i":"Low"},"geometry":{"type":"Point","coordinates":[-74.4875,40.088889]}},{"type":"Feature","properties":{"City":"Mount Holly","County":"Burlington","Status":"NPL Site","Longitude":-74.770839,"Latitude":39.980561,"Name":"Landfill & Development Co.","Score":33.62,"i":"Low"},"geometry":{"type":"Point","coordinates":[-74.770839,39.980561]}},{"type":"Feature","properties":{"City":"Millville","County":"Cumberland","Status":"NPL Site","Longitude":-75.032781,"Latitude":39.422219,"Name":"Nascolite Corp.","Score":51.13,"i":"Medium"},"geometry":{"type":"Point","coordinates":[-75.032781,39.422219]}},{"type":"Feature","properties":{"City":"Rockaway Township","County":"Morris","Status":"NPL Site","Longitude":-74.50555,"Latitude":40.970831,"Name":"Radiation Technology, Inc.","Score":42.56,"i":"Medium"},"geometry":{"type":"Point","coordinates":[-74.50555,40.970831]}},{"type":"Feature","properties":{"City":"Newfield Borough","County":"Gloucester","Status":"NPL Site","Longitude":-75.022219,"Latitude":39.543061,"Name":"Shieldalloy Corp.","Score":58.75,"i":"Medium"},"geometry":{"type":"Point","coordinates":[-75.022219,39.543061]}},{"type":"Feature","properties":{"City":"Upper Deerfield Township","County":"Cumberland","Status":"Deleted NPL Site","Longitude":-75.184719,"Latitude":39.494169,"Name":"Upper Deerfield Township Sanitary Landfill","Score":33.62,"i":"Low"},"geometry":{"type":"Point","coordinates":[-75.184719,39.494169]}},{"type":"Feature","properties":{"City":"Plumstead Township","County":"Monmouth, Ocean","Status":"Deleted NPL Site","Longitude":-74.445269,"Latitude":40.072219,"Name":"Wilson Farm","Score":33.93,"i":"Low"},"geometry":{"type":"Point","coordinates":[-74.445269,40.072219]}},{"type":"Feature","properties":{"City":"Woodland Township","County":"Burlington","Status":"NPL Site","Longitude":-74.492231,"Latitude":39.829169,"Name":"Woodland Route 532 Dump","Score":34.98,"i":"Low"},"geometry":{"type":"Point","coordinates":[-74.492231,39.829169]}},{"type":"Feature","properties":{"City":"Vineland","County":"Cumberland","Status":"NPL Site","Longitude":-75.056661,"Latitude":39.510281,"Name":"Vineland Chemical Co., Inc.","Score":59.16,"i":"Medium"},"geometry":{"type":"Point","coordinates":[-75.056661,39.510281]}},{"type":"Feature","properties":{"City":"Voorhees Township","County":"Camden","Status":"Deleted NPL Site","Longitude":-74.9455,"Latitude":39.8478,"Name":"Cooper Road","Score":36.79,"i":"Low"},"geometry":{"type":"Point","coordinates":[-74.9455,39.8478]}},{"type":"Feature","properties":{"City":"Florence Township","County":"Burlington","Status":"Deleted NPL Site","Longitude":-74.773611,"Latitude":40.069439,"Name":"Florence Land Recontouring, Inc., Landfill","Score":47.39,"i":"Medium"},"geometry":{"type":"Point","coordinates":[-74.773611,40.069439]}},{"type":"Feature","properties":{"City":"Tabernacle Township","County":"Burlington","Status":"Deleted NPL Site","Longitude":-74.700839,"Latitude":39.82,"Name":"Tabernacle Drum Dump","Score":36.83,"i":"Low"},"geometry":{"type":"Point","coordinates":[-74.700839,39.82]}},{"type":"Feature","properties":{"City":"Woodridge Borough","County":"Bergen","Status":"NPL Site","Longitude":-74.079439,"Latitude":40.84,"Name":"Ventron/Velsicol","Score":51.38,"i":"Medium"},"geometry":{"type":"Point","coordinates":[-74.079439,40.84]}},{"type":"Feature","properties":{"City":"Glen Ridge","County":"Essex","Status":"Deleted NPL Site","Longitude":-74.2125,"Latitude":40.788189,"Name":"Glen Ridge Radium Site","Score":49.14,"i":"Medium"},"geometry":{"type":"Point","coordinates":[-74.2125,40.788189]}},{"type":"Feature","properties":{"City":"Lodi","County":"Bergen","Status":"Deleted NPL Site","Longitude":-74.093611,"Latitude":40.872919,"Name":"Lodi Municipal Well","Score":33.39,"i":"Low"},"geometry":{"type":"Point","coordinates":[-74.093611,40.872919]}},{"type":"Feature","properties":{"City":"Galloway Township","County":"Atlantic","Status":"Deleted NPL Site","Longitude":-74.569439,"Latitude":39.477781,"Name":"Pomona Oaks Residential Wells","Score":31.94,"i":"Low"},"geometry":{"type":"Point","coordinates":[-74.569439,39.477781]}},{"type":"Feature","properties":{"City":"Cinnaminson Township","County":"Burlington","Status":"NPL Site","Longitude":-74.9862,"Latitude":40.0175,"Name":"Cinnaminson Township (Block 702) Ground Water Contamination","Score":37.93,"i":"Low"},"geometry":{"type":"Point","coordinates":[-74.9862,40.0175]}},{"type":"Feature","properties":{"City":"East Brunswick Township","County":"Middlesex","Status":"NPL Site","Longitude":-74.4412,"Latitude":40.4424,"Name":"Fried Industries","Score":33.61,"i":"Low"},"geometry":{"type":"Point","coordinates":[-74.4412,40.4424]}},{"type":"Feature","properties":{"City":"Montclair, West Orange","County":"Essex","Status":"Deleted NPL Site","Longitude":-74.2257,"Latitude":40.7929,"Name":"Montclair/West Orange Radium Site","Score":49.14,"i":"Medium"},"geometry":{"type":"Point","coordinates":[-74.2257,40.7929]}},{"type":"Feature","properties":{"City":"Wall Township","County":"Monmouth","Status":"NPL Site","Longitude":-74.0613,"Latitude":40.143,"Name":"Waldick Aerospace Devices, Inc.","Score":44.86,"i":"Medium"},"geometry":{"type":"Point","coordinates":[-74.0613,40.143]}},{"type":"Feature","properties":{"City":"Colts Neck","County":"Monmouth","Status":"NPL Site","Longitude":-74.162919,"Latitude":40.264581,"Name":"Naval Weapons Station Earle (Site A)","Score":29.65,"i":"Low"},"geometry":{"type":"Point","coordinates":[-74.162919,40.264581]}},{"type":"Feature","properties":{"City":"Lakehurst","County":"Ocean","Status":"NPL Site","Longitude":-74.369161,"Latitude":40.029719,"Name":"Naval Air Engineering Center","Score":50.53,"i":"Medium"},"geometry":{"type":"Point","coordinates":[-74.369161,40.029719]}},{"type":"Feature","properties":{"City":"Pemberton Township","County":"Burlington","Status":"Deleted NPL Site","Longitude":-74.6244,"Latitude":39.9801,"Name":"Fort Dix (Landfill Site)","Score":37.4,"i":"Low"},"geometry":{"type":"Point","coordinates":[-74.6244,39.9801]}},{"type":"Feature","properties":{"City":"Wall Township","County":"Monmouth","Status":"NPL Site","Longitude":-74.119719,"Latitude":40.185281,"Name":"Monitor Devices, Inc./Intercircuits, Inc.","Score":41.93,"i":"Medium"},"geometry":{"type":"Point","coordinates":[-74.119719,40.185281]}},{"type":"Feature","properties":{"City":"Wharton Borough","County":"Morris","Status":"NPL Site","Longitude":-74.5775,"Latitude":40.903331,"Name":"Dayco Corp./L.E. Carpenter Co.","Score":46.13,"i":"Medium"},"geometry":{"type":"Point","coordinates":[-74.5775,40.903331]}},{"type":"Feature","properties":{"City":"Beverly","County":"Burlington","Status":"NPL Site","Longitude":-74.925899,"Latitude":40.058183,"Name":"Cosden Chemical Coatings Corp.","Score":33.86,"i":"Low"},"geometry":{"type":"Point","coordinates":[-74.925899,40.058183]}},{"type":"Feature","properties":{"City":"Saddle Brook Township","County":"Bergen","Status":"NPL Site","Longitude":-74.1035,"Latitude":40.8907,"Name":"Curcio Scrap Metal, Inc.","Score":34.37,"i":"Low"},"geometry":{"type":"Point","coordinates":[-74.1035,40.8907]}},{"type":"Feature","properties":{"City":"Bound Brook","County":"Somerset","Status":"NPL Site","Longitude":-74.536111,"Latitude":40.560139,"Name":"Brook Industrial Park","Score":58.12,"i":"Medium"},"geometry":{"type":"Point","coordinates":[-74.536111,40.560139]}},{"type":"Feature","properties":{"City":"Warren County","County":"Warren","Status":"NPL Site","Longitude":-75,"Latitude":40.75,"Name":"Pohatcong Valley Ground Water Contamination","Score":28.9,"i":"Low"},"geometry":{"type":"Point","coordinates":[-75,40.75]}},{"type":"Feature","properties":{"City":"Jobstown","County":"Burlington","Status":"NPL Site","Longitude":-74.694,"Latitude":40.0363,"Name":"Kauffman & Minteer, Inc.","Score":28.51,"i":"Low"},"geometry":{"type":"Point","coordinates":[-74.694,40.0363]}},{"type":"Feature","properties":{"City":"Oakland","County":"Bergen","Status":"Deleted NPL Site","Longitude":-74.24375,"Latitude":41.00375,"Name":"Witco Chemical Corp. (Oakland Plant)","Score":30.63,"i":"Low"},"geometry":{"type":"Point","coordinates":[-74.24375,41.00375]}},{"type":"Feature","properties":{"City":"Rockaway Township","County":"Morris","Status":"NPL Site","Longitude":-74.583339,"Latitude":40.916669,"Name":"Picatinny Arsenal (USARMY)","Score":42.92,"i":"Medium"},"geometry":{"type":"Point","coordinates":[-74.583339,40.916669]}},{"type":"Feature","properties":{"City":"Minotola","County":"Atlantic","Status":"NPL Site","Longitude":-74.9491,"Latitude":39.5206,"Name":"South Jersey Clothing Co.","Score":42.24,"i":"Medium"},"geometry":{"type":"Point","coordinates":[-74.9491,39.5206]}},{"type":"Feature","properties":{"City":"Wallington Borough","County":"Bergen","Status":"Deleted NPL Site","Longitude":-74.0991,"Latitude":40.8536,"Name":"Industrial Latex Corp.","Score":32.38,"i":"Low"},"geometry":{"type":"Point","coordinates":[-74.0991,40.8536]}},{"type":"Feature","properties":{"City":"Franklin Township","County":"Somerset","Status":"NPL Site","Longitude":-74.615281,"Latitude":40.3875,"Name":"Higgins Disposal","Score":30.87,"i":"Low"},"geometry":{"type":"Point","coordinates":[-74.615281,40.3875]}},{"type":"Feature","properties":{"City":"Franklin Township","County":"Somerset","Status":"NPL Site","Longitude":-74.602781,"Latitude":40.406389,"Name":"Higgins Farm","Score":30.47,"i":"Low"},"geometry":{"type":"Point","coordinates":[-74.602781,40.406389]}},{"type":"Feature","properties":{"City":"Old Bridge Township","County":"Middlesex","Status":"NPL Site","Longitude":-74.286111,"Latitude":40.446389,"Name":"Global Sanitary Landfill","Score":45.92,"i":"Medium"},"geometry":{"type":"Point","coordinates":[-74.286111,40.446389]}},{"type":"Feature","properties":{"City":"Minotola","County":"Atlantic","Status":"NPL Site","Longitude":-74.94945,"Latitude":39.519031,"Name":"Garden State Cleaners Co.","Score":28.9,"i":"Low"},"geometry":{"type":"Point","coordinates":[-74.94945,39.519031]}},{"type":"Feature","properties":{"City":"Atlantic County","County":"Atlantic","Status":"NPL Site","Longitude":-74.583339,"Latitude":39.458331,"Name":"Federal Aviation Administration Technical Center","Score":39.65,"i":"Low"},"geometry":{"type":"Point","coordinates":[-74.583339,39.458331]}},{"type":"Feature","properties":{"City":"Edison Township","County":"Middlesex","Status":"NPL Site","Longitude":-74.368,"Latitude":40.5274,"Name":"Chemical Insecticide Corp.","Score":37.93,"i":"Low"},"geometry":{"type":"Point","coordinates":[-74.368,40.5274]}},{"type":"Feature","properties":{"City":"Newark","County":"Essex","Status":"NPL Site","Longitude":-74.198242,"Latitude":40.698484,"Name":"White Chemical Corp.","Score":0,"i":"Low"},"geometry":{"type":"Point","coordinates":[-74.198242,40.698484]}},{"type":"Feature","properties":{"City":"Sayreville","County":"Middlesex","Status":"NPL Site","Longitude":-74.319444,"Latitude":40.484722,"Name":"Horseshoe Road","Score":51.37,"i":"Medium"},"geometry":{"type":"Point","coordinates":[-74.319444,40.484722]}},{"type":"Feature","properties":{"City":"Franklin Township","County":"Gloucester","Status":"NPL Site","Longitude":-75.025,"Latitude":39.594444,"Name":"Franklin Burn","Score":40.67,"i":"Medium"},"geometry":{"type":"Point","coordinates":[-75.025,39.594444]}},{"type":"Feature","properties":{"City":"Camden, Gloucester City","County":"Camden","Status":"NPL Site","Longitude":-75.121944,"Latitude":39.919722,"Name":"Welsbach & General Gas Mantle (Camden Radiation)","Score":41.46,"i":"Medium"},"geometry":{"type":"Point","coordinates":[-75.121944,39.919722]}},{"type":"Feature","properties":{"City":"Hoboken","County":"Hudson","Status":"Deleted NPL Site","Longitude":-74.034444,"Latitude":40.746111,"Name":"Grand Street Mercury","Score":0,"i":"Low"},"geometry":{"type":"Point","coordinates":[-74.034444,40.746111]}},{"type":"Feature","properties":{"City":"South Plainfield","County":"Middlesex","Status":"NPL Site","Longitude":-74.414167,"Latitude":40.576389,"Name":"Cornell Dubilier Electronics, Inc.","Score":50.27,"i":"Medium"},"geometry":{"type":"Point","coordinates":[-74.414167,40.576389]}},{"type":"Feature","properties":{"City":"Linden","County":"Union","Status":"NPL Site","Longitude":-74.210278,"Latitude":40.6075,"Name":"LCP Chemicals Inc.","Score":50,"i":"Medium"},"geometry":{"type":"Point","coordinates":[-74.210278,40.6075]}},{"type":"Feature","properties":{"City":"Pennsauken Township","County":"Camden","Status":"NPL Site","Longitude":-75.051944,"Latitude":39.976667,"Name":"Puchack Well Field","Score":50,"i":"Medium"},"geometry":{"type":"Point","coordinates":[-75.051944,39.976667]}},{"type":"Feature","properties":{"City":"Howell Township","County":"Monmouth","Status":"NPL Site","Longitude":-74.2,"Latitude":40.145833,"Name":"Zschiegner Refining","Score":50,"i":"Medium"},"geometry":{"type":"Point","coordinates":[-74.2,40.145833]}},{"type":"Feature","properties":{"City":"Gibbsboro","County":"Camden","Status":"Proposed NPL Site","Longitude":-74.958333,"Latitude":39.83611,"Name":"Route 561 Dump","Score":50,"i":"Medium"},"geometry":{"type":"Point","coordinates":[-74.958333,39.83611]}},{"type":"Feature","properties":{"City":"Manville","County":"Somerset","Status":"Deleted NPL Site","Longitude":-74.584167,"Latitude":40.544444,"Name":"Federal Creosote","Score":50,"i":"Medium"},"geometry":{"type":"Point","coordinates":[-74.584167,40.544444]}},{"type":"Feature","properties":{"City":"Middlesex","County":"Middlesex","Status":"NPL Site","Longitude":-74.493194,"Latitude":40.569806,"Name":"Middlesex Sampling Plant (USDOE)","Score":50,"i":"Medium"},"geometry":{"type":"Point","coordinates":[-74.493194,40.569806]}},{"type":"Feature","properties":{"City":"Gibbsboro","County":"Camden","Status":"NPL Site","Longitude":-74.963889,"Latitude":39.834167,"Name":"United States Avenue Burn","Score":50,"i":"Medium"},"geometry":{"type":"Point","coordinates":[-74.963889,39.834167]}},{"type":"Feature","properties":{"City":"Galloway Township","County":"Atlantic","Status":"NPL Site","Longitude":-74.543611,"Latitude":39.500694,"Name":"Emmell's Septic Landfill","Score":50,"i":"Medium"},"geometry":{"type":"Point","coordinates":[-74.543611,39.500694]}},{"type":"Feature","properties":{"City":"Camden","County":"Camden","Status":"NPL Site","Longitude":-75.119167,"Latitude":39.926111,"Name":"Martin Aaron, Inc.","Score":50,"i":"Medium"},"geometry":{"type":"Point","coordinates":[-75.119167,39.926111]}},{"type":"Feature","properties":{"City":"Vineland","County":"Cumberland","Status":"NPL Site","Longitude":-75.04725,"Latitude":39.45725,"Name":"Iceland Coin Laundry Area Ground Water Plume","Score":30.3,"i":"Low"},"geometry":{"type":"Point","coordinates":[-75.04725,39.45725]}},{"type":"Feature","properties":{"City":"Winslow Township","County":"Camden","Status":"NPL Site","Longitude":-74.905917,"Latitude":39.729722,"Name":"Lightman Drum Company","Score":42.03,"i":"Medium"},"geometry":{"type":"Point","coordinates":[-74.905917,39.729722]}},{"type":"Feature","properties":{"City":"Wrightstown","County":"Burlington","Status":"NPL Site","Longitude":-74.593611,"Latitude":40.018056,"Name":"McGuire Air Force Base #1","Score":47.2,"i":"Medium"},"geometry":{"type":"Point","coordinates":[-74.593611,40.018056]}},{"type":"Feature","properties":{"City":"Kearny","County":"Hudson","Status":"NPL Site","Longitude":-74.132194,"Latitude":40.747222,"Name":"Diamond Head Oil Refinery Div.","Score":30,"i":"Low"},"geometry":{"type":"Point","coordinates":[-74.132194,40.747222]}},{"type":"Feature","properties":{"City":"Edgewater","County":"Bergen","Status":"NPL Site","Longitude":-73.989167,"Latitude":40.804306,"Name":"Quanta Resources","Score":50,"i":"Medium"},"geometry":{"type":"Point","coordinates":[-73.989167,40.804306]}},{"type":"Feature","properties":{"City":"South Plainfield","County":"Middlesex","Status":"NPL Site","Longitude":-74.402914,"Latitude":40.561564,"Name":"Woodbrook Road Dump","Score":50,"i":"Medium"},"geometry":{"type":"Point","coordinates":[-74.402914,40.561564]}},{"type":"Feature","properties":{"City":"Sayreville","County":"Middlesex","Status":"NPL Site","Longitude":-74.319444,"Latitude":40.486111,"Name":"Atlantic Resources Corporation","Score":50,"i":"Medium"},"geometry":{"type":"Point","coordinates":[-74.319444,40.486111]}},{"type":"Feature","properties":{"City":"Wall Township","County":"Monmouth","Status":"NPL Site","Longitude":-74.063133,"Latitude":40.135444,"Name":"White Swan Cleaners/Sun Cleaners Area Ground Water Contamination","Score":41.63,"i":"Medium"},"geometry":{"type":"Point","coordinates":[-74.063133,40.135444]}},{"type":"Feature","properties":{"City":"Kearny","County":"Hudson","Status":"NPL Site","Longitude":-74.097222,"Latitude":40.75,"Name":"Standard Chlorine","Score":50,"i":"Medium"},"geometry":{"type":"Point","coordinates":[-74.097222,40.75]}},{"type":"Feature","properties":{"City":"Chatham Township","County":"Morris","Status":"NPL Site","Longitude":-74.447861,"Latitude":40.729528,"Name":"Rolling Knolls Landfill","Score":58.31,"i":"Medium"},"geometry":{"type":"Point","coordinates":[-74.447861,40.729528]}},{"type":"Feature","properties":{"City":"Alexandria Township","County":"Hunterdon","Status":"Deleted NPL Site","Longitude":-75.078917,"Latitude":40.552028,"Name":"Crown Vantage Landfill","Score":50,"i":"Medium"},"geometry":{"type":"Point","coordinates":[-75.078917,40.552028]}},{"type":"Feature","properties":{"City":"Gibbsboro","County":"Camden","Status":"NPL Site","Longitude":-74.964977,"Latitude":39.835526,"Name":"Sherwin-Williams/Hilliards Creek","Score":50,"i":"Medium"},"geometry":{"type":"Point","coordinates":[-74.964977,39.835526]}},{"type":"Feature","properties":{"City":"Thorofare","County":"Gloucester","Status":"NPL Site","Longitude":-75.168306,"Latitude":39.854722,"Name":"Matteo & Sons, Inc.","Score":50,"i":"Medium"},"geometry":{"type":"Point","coordinates":[-75.168306,39.854722]}},{"type":"Feature","properties":{"City":"Ringwood Borough","County":"Passaic","Status":"NPL Site","Longitude":-74.2725,"Latitude":41.136669,"Name":"Ringwood Mines/Landfill","Score":52.58,"i":"Medium"},"geometry":{"type":"Point","coordinates":[-74.2725,41.136669]}},{"type":"Feature","properties":{"City":"Milford","County":"Hunterdon","Status":"NPL Site","Longitude":-75.089842,"Latitude":40.561758,"Name":"Curtis Specialty Papers, Inc.","Score":50,"i":"Medium"},"geometry":{"type":"Point","coordinates":[-75.089842,40.561758]}},{"type":"Feature","properties":{"City":"Old Bridge Township, Sayreville","County":"Middlesex","Status":"NPL Site","Longitude":-74.258017,"Latitude":40.464589,"Name":"Raritan Bay Slag","Score":50,"i":"Medium"},"geometry":{"type":"Point","coordinates":[-74.258017,40.464589]}},{"type":"Feature","properties":{"City":"Byram","County":"Sussex","Status":"NPL Site","Longitude":-74.6995999,"Latitude":40.9289443,"Name":"Mansfield Trail Dump","Score":50,"i":"Medium"},"geometry":{"type":"Point","coordinates":[-74.6995999,40.9289443]}},{"type":"Feature","properties":{"City":"Garfield","County":"Bergen","Status":"NPL Site","Longitude":-74.106431,"Latitude":40.871858,"Name":"Garfield Ground Water Contamination","Score":0,"i":"Low"},"geometry":{"type":"Point","coordinates":[-74.106431,40.871858]}},{"type":"Feature","properties":{"City":"West Orange/Orange","County":"Essex","Status":"NPL Site","Longitude":-74.225267,"Latitude":40.779936,"Name":"Orange Valley Regional Ground Water Contamination","Score":50,"i":"Medium"},"geometry":{"type":"Point","coordinates":[-74.225267,40.779936]}},{"type":"Feature","properties":{"City":"Woolwich Township","County":"Gloucester","Status":"NPL Site","Longitude":-75.322169,"Latitude":39.763106,"Name":"Matlack, Inc.","Score":45.54,"i":"Medium"},"geometry":{"type":"Point","coordinates":[-75.322169,39.763106]}},{"type":"Feature","properties":{"City":"Newark","County":"Essex","Status":"NPL Site","Longitude":-74.159084,"Latitude":40.765722,"Name":"Riverside Industrial Park","Score":50,"i":"Medium"},"geometry":{"type":"Point","coordinates":[-74.159084,40.765722]}},{"type":"Feature","properties":{"City":"Newark","County":"Essex","Status":"NPL Site","Longitude":-74.1452,"Latitude":40.7163,"Name":"Pierson's Creek","Score":47.99,"i":"Medium"},"geometry":{"type":"Point","coordinates":[-74.1452,40.7163]}},{"type":"Feature","properties":{"City":"Fairfield","County":"Essex","Status":"NPL Site","Longitude":-74.269155,"Latitude":40.878792,"Name":"Unimatic Manufacturing Corporation","Score":50,"i":"Medium"},"geometry":{"type":"Point","coordinates":[-74.269155,40.878792]}},{"type":"Feature","properties":{"City":"Vineland","County":"Cumberland","Status":"NPL Site","Longitude":-75.025489,"Latitude":39.47841,"Name":"Former Kil-Tone Company","Score":65.29,"i":"High"},"geometry":{"type":"Point","coordinates":[-75.025489,39.47841]}},{"type":"Feature","properties":{"City":"Franklinville","County":"Gloucester","Status":"NPL Site","Longitude":-75.061474,"Latitude":39.616969,"Name":"Pioneer Metal Finishing Inc","Score":47.99,"i":"Medium"},"geometry":{"type":"Point","coordinates":[-75.061474,39.616969]}},{"type":"Feature","properties":{"City":"Bergen, Hudson","County":"Bergen, Hudson","Status":"NPL Site","Longitude":-74.067175,"Latitude":40.800794,"Name":"Lower Hackensack River","Score":50,"i":"Medium"},"geometry":{"type":"Point","coordinates":[-74.067175,40.800794]}}]}